id,name,address,cityname,adname,location,biz_rating,biz_cost,biz_open_time,biz_opentime2,source_hex_id,cpo_final,longitude,latitude
B0LUBAGB6W,蔚来能源目的地充电站(成都三岔湖蕃薯藤度假酒店),三岔街道三岔湖内,成都市,简阳市,"104.267496,30.327518",2.5,,24小时营业,周一至周日 00:00-24:00,hex_111,蔚来,104.267496,30.327518
B0K26MTGIC,理想汽车充电站(理想超充站成都天府机场),四川航空天府分公司北门旁,成都市,简阳市,"104.458740,30.335299",3.8,,24小时营业,周一至周日 00:00-24:00,hex_137,理想,104.45874,30.335299
B0LUH9CY1L,理想超级充电站(理想超充站成都麓湖海浪运动公园),华阳街道嘉州路WAVE BOX海浪运动公园,成都市,双流区,"104.058221,30.461415",3.8,,24小时营业,周一至周日 00:00-24:00,hex_157,理想,104.058221,30.461415
B0L046VHJ5,小鹏超级充电站(小鹏S4超快充成都天府泰和泰中心站),隆和西巷299号(杭州路地铁站B2口步行400米),成都市,双流区,"104.087036,30.437222",3.8,,24小时营业,周一至周日 00:00-24:00,hex_157,小鹏,104.087036,30.437222
B0K15UEZG8,蔚来能源超级充电站(成都麓湖海浪公园),天津路西段,成都市,双流区,"104.054170,30.461369",2.6,,24小时营业,周一至周日 00:00-24:00,hex_157,蔚来,104.05417,30.461369
B0LGFGPI7O,蔚来能源目的地充电站(内部使用成都蔚蓝阁A区),天府新区正兴街道双燕路西段333号,成都市,双流区,"104.059810,30.440672",0.0,,24小时营业,周一至周日 00:00-24:00,hex_157,蔚来,104.05981,30.440672
B0LA7YN5JE,蔚来能源目的地充电站(内部使用成都蔚蓝轩A区),武汉路西段附近,成都市,双流区,"104.064090,30.441029",0.0,,24小时营业,周一至周日 00:00-24:00,hex_157,蔚来,104.06409,30.441029
B0LA7YL78D,蔚来能源目的地充电站(内部使用成都蔚蓝轩B区),武汉路西段蔚蓝卡地亚花园城内,成都市,双流区,"104.066070,30.441818",0.0,,24小时营业,周一至周日 00:00-24:00,hex_157,蔚来,104.06607,30.441818
B0LGFGO9F8,蔚来能源目的地充电站(内部使用成都蔚蓝阁B区),双燕路西段336号,成都市,双流区,"104.062160,30.439348",0.0,,24小时营业,周一至周日 00:00-24:00,hex_157,蔚来,104.06216,30.439348
B0LGVDSVPI,汽车充电站(私人小鹏共享充电桩),天津路东段1016号万科天府公园城悦庭负一层639号车位,成都市,双流区,"104.089807,30.465036",[],,24小时营业,周一至周日 00:00-24:00,hex_157,小鹏,104.089807,30.465036
B0L0K6P3XI,小鹏超级充电站(小鹏S4超快充成都龙泉红岭路站),红岭路375号停车场,成都市,龙泉驿区,"104.271810,30.574300",3.8,,24小时营业,周一至周日 00:00-24:00,hex_207,小鹏,104.27181,30.5743
B0J0U4US0D,小鹏超级充电站(小鹏S4超快充成都龙泉卡尔中心站),成龙大道三段388号卡尔中心,成都市,龙泉驿区,"104.223705,30.546355",5.0,,24小时营业,周一至周日 00:00-24:00,hex_207,小鹏,104.223705,30.546355
B0KRD9M5FE,理想汽车充电站(理想超充站成都龙泉驿红岭路),龙泉街道成都市龙泉驿区特殊教育学校,成都市,龙泉驿区,"104.272249,30.573859",3.8,,24小时营业,周一至周日 00:00-24:00,hex_207,理想,104.272249,30.573859
B0IUJ7IR9J,小鹏汽车充电站(小鹏超充成都龙泉吾悦广场站),龙泉吾悦地下停车场A101(入口大连北路),成都市,龙泉驿区,"104.238510,30.578180",3.8,,24小时营业,周一至周日 00:00-24:00,hex_207,小鹏,104.23851,30.57818
B0KGFL97VX,理想超级充电站(理想超充站成都航天城东侧停车场),龙泉街道燎原中路航天城,成都市,龙泉驿区,"104.261170,30.555325",3.5,,24小时营业,周一至周日 00:00-24:00,hex_207,理想,104.26117,30.555325
B0LDMRCIKF,蔚来能源超级充电站(成都市天府新区麓山沈阳路),万安街道麓山大道二段6号附33号,成都市,双流区,"104.087548,30.470365",4.9,,24小时营业,周一至周日 00:00-24:00,hex_181,蔚来,104.087548,30.470365
B0JR16LUJ2,小鹏目的地充电站(小鹏目充成都天府和悦体验中心20kW站),"天府和悦广场地下B1层(入口麓山大道二段)充电车位,四川省成都市双流区麓山大道二段199号天府和悦广场A馆-LG-60",成都市,双流区,"104.085657,30.486809",2.3,,24小时营业,周一至周日 00:00-24:00,hex_181,小鹏,104.085657,30.486809
B0J0PU9PVP,蔚来能源超级充电站(成都会龙祥龙一街),中和会龙路304号地面停车场,成都市,双流区,"104.078284,30.521742",2.6,,24小时营业,周一至周日 00:00-24:00,hex_181,蔚来,104.078284,30.521742
B0J3CSED0S,蔚来换电站(成都会龙祥龙一街),中和会龙路304号,成都市,双流区,"104.078148,30.521739",[],,24小时营业,周一至周日 00:00-24:00,hex_181,蔚来,104.078148,30.521739
B0LR3MBJB4,理想超级充电站(理想超充站成都海伦堡海伦春天),华阳街道牧华路三段辅路海伦堡海伦春天,成都市,双流区,"104.044620,30.485699",3.8,,24小时营业,周一至周日 00:00-24:00,hex_180,理想,104.04462,30.485699
B0IUDLJSLG,小鹏超级充电站(小鹏S4超快充成都复地御香山站),华阳镇街道东山大道一段复地御香山3悦地下停车场386,成都市,双流区,"104.069855,30.476566",3.3,,24小时营业,周一至周日 00:00-24:00,hex_180,小鹏,104.069855,30.476566
B0LUH9KM5J,理想超级充电站(理想超充站成都华阳大润发),怡心街道嘉美地(骑龙地铁站A口步行230米),成都市,双流区,"104.042840,30.523432",3.8,,24小时营业,周一至周日 00:00-24:00,hex_180,理想,104.04284,30.523432
B0J64S7EEC,蔚来换电站(成都天府恒大文化旅游城),天府大道南段2490号,成都市,双流区,"104.069436,30.484651",4.2,,24小时营业,周一至周日 00:00-24:00,hex_180,蔚来,104.069436,30.484651
B0LAVM605D,理想超级充电站(理想超充站成都高新区天府四街),桂溪街道悟空羽毛球运动公园,成都市,武侯区,"104.025200,30.540520",3.8,,24小时营业,周一至周日 00:00-24:00,hex_180,理想,104.0252,30.54052
B0L61UQL0E,蔚来能源目的地充电站(内部使用艾默生自动化流体四川有限公司),西航港开发区空港四路1128号,成都市,双流区,"103.983340,30.506147",0.0,,24小时营业,周一至周日 00:00-24:00,hex_180,蔚来,103.98334,30.506147
B0IKFLE0I4,蔚来能源汽车充电站(蔚来超充站成都天府恒大文化旅游城),天府大道南段2618号,成都市,双流区,"104.069543,30.484616",3.3,,24小时营业,周一至周日 00:00-24:00,hex_180,蔚来,104.069543,30.484616
B0L1FUWW8V,蔚来能源目的地充电站(内部使用成都市双流区感知成都中心),感知成都中心地下停车场,成都市,双流区,"104.007390,30.466026",0.0,,24小时营业,周一至周日 00:00-24:00,hex_180,蔚来,104.00739,30.466026
B0H309D4VY,汽车充电站(蔚来超充站成都雷鳗百日红西路),百日红西路地面停车场,成都市,锦江区,"104.145832,30.601244",4.7,,24小时营业,周一至周日 00:00-24:00,hex_206,蔚来,104.145832,30.601244
B0K2X62A83,小鹏超级充电站(小鹏S4超快充成都龙泉经开产业园站),成龙大道二段1666号成都龙泉经开产业园,成都市,龙泉驿区,"104.194731,30.561767",3.4,,24小时营业,周一至周日 00:00-24:00,hex_206,小鹏,104.194731,30.561767
B0I05PVHJE,小鹏汽车充电站(小鹏超充成都华熙LIVE·528商业区站),喜树街与海棠路交叉口南150米华熙live·528,成都市,锦江区,"104.145120,30.593319",3.8,,24小时营业,周一至周日 00:00-24:00,hex_206,小鹏,104.14512,30.593319
B0L114J1DY,友电目的地充电站(成都百日红西路蔚来超充站内),百日红西路东部副中心市政景观公园,成都市,锦江区,"104.143050,30.602015",2.2,,24小时营业,周一至周日 00:00-24:00,hex_206,蔚来,104.14305,30.602015
B0I6PRI3NZ,蔚来能源目的地充电站(已拆除成都世茂广场)(暂停营业),蔚来空间(成都世茂广场店),成都市,龙泉驿区,"104.187777,30.581440",0.0,,00:00-21:00,周一至周日 00:00-21:00,hex_206,蔚来,104.187777,30.58144
B0IR9LVQET,蔚来能源汽车充电站(成都中和湿地公园),中和湿地公园地面停车场,成都市,双流区,"104.108792,30.563395",4.7,,24小时营业,周一至周日 00:00-24:00,hex_205,蔚来,104.108792,30.563395
B0K1JRB7YB,蔚来换电站(中和湿地公园),中和湿地公园1号门东350米,成都市,双流区,"104.108675,30.563275",4.3,,[],[],hex_205,蔚来,104.108675,30.563275
B0I0AP5VPC,蔚来能源汽车充电站(成都香月湖),吉庆二路333号香月湖地下停车场,成都市,武侯区,"104.060437,30.554934",4.7,,24小时营业,周一至周日 00:00-24:00,hex_205,蔚来,104.060437,30.554934
B0K1TAV3D0,蔚来换电站(成都宜家家居高新商场),益州大道北段8号,成都市,武侯区,"104.060966,30.599482",[],,24小时营业,周一至周日 00:00-24:00,hex_205,蔚来,104.060966,30.599482
B0KKD6VRQY,小鹏超级充电站(能创·腾启特拉克斯超级充电站小鹏平台),桂溪街道天顺中街11号特拉克斯国际广场北楼,成都市,武侯区,"104.070591,30.593309",3.3,,24小时营业,周一至周日 00:00-24:00,hex_205,小鹏,104.070591,30.593309
B0K0Y6M2RX,小鹏超级充电站(小鹏S5超快充成都天祥广场站),天府大道中段500号东方希望天祥广场,成都市,武侯区,"104.067410,30.552347",3.8,,24小时营业,周一至周日 00:00-24:00,hex_205,小鹏,104.06741,30.552347
B0L6C63V1C,小鹏超级充电站(小鹏S4超快充成都大源公园站),天府三街988号大源中央公园(入口天府三街),成都市,武侯区,"104.051867,30.547071",3.3,,24小时营业,周一至周日 00:00-24:00,hex_205,小鹏,104.051867,30.547071
B0K3XH2FC0,汽车换电站(蔚来高新机场路站),新园南三路133号,成都市,武侯区,"104.035091,30.593207",[],,24小时营业,周一至周日 00:00-24:00,hex_205,蔚来,104.035091,30.593207
B0LR9CQ1NG,理想超级充电站(理想超充站成都佛莱雅花园酒店),桂溪街道天仁路247号佛莱雅花园酒店(新加坡),成都市,武侯区,"104.071846,30.601368",3.8,,24小时营业,周一至周日 00:00-24:00,hex_205,理想,104.071846,30.601368
B0K0JZ0UR6,蔚来能源目的地充电站(蔚来V2G充电站|成都城南天府),天府大厦地下停车场(火车南站地铁站E口步行300米),成都市,武侯区,"104.063770,30.604013",2.6,,24小时营业,周一至周日 00:00-24:00,hex_205,蔚来,104.06377,30.604013
B0LABY4AKR,理想超级充电站(理想超充站成都特拉克斯国际广场),桂溪街道天顺路159号特拉克斯国际广场北楼,成都市,武侯区,"104.070820,30.593367",3.3,,24小时营业,周一至周日 00:00-24:00,hex_205,理想,104.07082,30.593367
B0J1MATXQL,小鹏超级充电站(小鹏S4超快充成都汇锦广场站),盛华北路199号附201号汇锦城(入口盛安街),成都市,武侯区,"104.053310,30.558008",3.3,,24小时营业,周一至周日 00:00-24:00,hex_205,小鹏,104.05331,30.558008
B0KKX7VN80,理想超级充电站(理想超充站成都高新新园大道),高新技术产业开发区(南区),成都市,武侯区,"104.040825,30.593155",3.3,,24小时营业,周一至周日 00:00-24:00,hex_205,理想,104.040825,30.593155
B0KK46XVU2,小鹏超级充电站(小鹏S4超快充成都月牙湖酒店站),高新区吉瑞一路200号航天城上城,成都市,武侯区,"104.060410,30.556620",3.3,,24小时营业,周一至周日 00:00-24:00,hex_205,小鹏,104.06041,30.55662
B0L0F6S9P8,小鹏超级充电站(小鹏-bp S4超快充成都高新欧尚站),桂溪街道盛和一路高新欧尚地面停车场,成都市,武侯区,"104.061745,30.602602",3.3,,24小时营业,周一至周日 00:00-24:00,hex_205,小鹏,104.061745,30.602602
B0LRO6W5S8,小鹏超级充电站(小鹏S4超快充成都港宏华府大道二期站),华阳街道欣宇都市港湾蓝润置地广场,成都市,双流区,"104.065950,30.526482",3.0,,24小时营业,周一至周日 00:00-24:00,hex_205,小鹏,104.06595,30.526482
B0IBA6QB2W,蔚来能源汽车充电站(中和蓝新),地面停车场,成都市,双流区,"104.089779,30.546888",2.6,,24小时营业,周一至周日 00:00-24:00,hex_205,蔚来,104.089779,30.546888
B0LR16ROZB,小鹏超级充电站(小鹏S4超快充成都港宏华府大道站),华阳镇街道欣宇都市港湾蓝润置地广场,成都市,双流区,"104.065865,30.526638",3.0,,24小时营业,周一至周日 00:00-24:00,hex_205,小鹏,104.065865,30.526638
B0IK3AM9GF,蔚来换电站(成都桂溪公园站),益州大道中段700号,成都市,武侯区,"104.066834,30.560765",4.3,,24小时营业,周一至周日 00:00-24:00,hex_205,蔚来,104.066834,30.560765
B0KR7RNN0A,蔚来换电站(中和蓝新站),红星路南延线辅路1209号,成都市,双流区,"104.089725,30.546775",0.0,,[],[],hex_205,蔚来,104.089725,30.546775
B0L61URV8D,蔚来能源目的地充电站(内部使用成都招商银行金融后台中心1期),天府四街488号,成都市,武侯区,"104.058130,30.543573",0.0,,24小时营业,周一至周日 00:00-24:00,hex_205,蔚来,104.05813,30.543573
B0LUY6N28M,小鹏超级充电站(道森能源空港之星充电站小鹏),西航港街道羊双路309号江安社区空港之星航雅路停车场,成都市,双流区,"104.010690,30.545286",3.3,,24小时营业,周一至周日 00:00-24:00,hex_204,小鹏,104.01069,30.545286
B0K6ZUY3ON,小鹏汽车充电站(开放运营-成都双流空港S4小鹏超快充站),羊双路与航雅路交叉口北60米,成都市,双流区,"104.010873,30.545384",[],,24小时营业,周一至周日 00:00-24:00,hex_204,小鹏,104.010873,30.545384
B0L3JSE04P,汽车换电站(蔚来成都西航港生态停车场),西航港生态停车场内(江安河边),成都市,双流区,"103.983386,30.569150",[],,[],[],hex_204,蔚来,103.983386,30.56915
B0KKB5H994,理想超级充电站(理想超充站成都龙泉驿好日子社区),大面街道洪玉路1号好日子社区便民停车场,成都市,龙泉驿区,"104.168830,30.625292",3.8,,24小时营业,周一至周日 00:00-24:00,hex_230,理想,104.16883,30.625292
B0L616CFL9,小鹏超级充电站(小鹏S4超快充成都十陵友谊路站),十陵友谊路249号附102号(入口友谊路),成都市,龙泉驿区,"104.179080,30.656748",3.3,,24小时营业,周一至周日 00:00-24:00,hex_230,小鹏,104.17908,30.656748
B0LR6MF488,理想汽车超级充电站(理想超充站成都十陵东洪路),十陵街道外东洪路中段外东洪路地面停车场,成都市,龙泉驿区,"104.163870,30.648302",3.8,,24小时营业,周一至周日 00:00-24:00,hex_230,理想,104.16387,30.648302
B0KU66XY1X,小鹏超级充电站(小鹏S4超快充成都白鹤小区站),白鹤小区停车场,成都市,龙泉驿区,"104.170685,30.614796",0.0,,24小时营业,周一至周日 00:00-24:00,hex_230,小鹏,104.170685,30.614796
B0L6X6K5V0,小鹏超级充电站(小鹏S4超快充成都双桥子苏宁易购站),大田坎街162号(入口经华北路),成都市,锦江区,"104.105312,30.644443",3.8,,24小时营业,周一至周日 00:00-24:00,hex_229,小鹏,104.105312,30.644443
B0JUK6M9UJ,蔚来汽车充电站(蔚来超充站成都和美公园),和锦路与万科路交汇处西北侧地面停车场,成都市,成华区,"104.154694,30.627694",0.0,,24小时营业,周一至周日 00:00-24:00,hex_229,蔚来,104.154694,30.627694
B0L3S61UHI,小鹏超级充电站(小鹏S4超快充成都汇泉东路站),双桂路街道汇泉东路86号四川省成都市七中育才学校,成都市,锦江区,"104.108740,30.632673",3.4,,24小时营业,周一至周日 00:00-24:00,hex_229,小鹏,104.10874,30.632673
B0L2U6DMSZ,小鹏超级充电站(小鹏S4超快充成都紫东正街站),锦官驿街道紫东街电力社区(年丰巷53号院北)成都市七中育才附属小学锦官驿校区,成都市,锦江区,"104.090355,30.646580",3.3,,24小时营业,周一至周日 00:00-24:00,hex_229,小鹏,104.090355,30.64658
B0IUDLGH79,小鹏汽车汽车充电站(成都东站西广场小鹏超充站),锦绣大道与青衣江路交叉口东北20米,成都市,成华区,"104.135540,30.627478",0.0,,24小时营业,周一至周日 00:00-24:00,hex_229,小鹏,104.13554,30.627478
B0JG6LPS5A,小鹏超级充电站(小鹏S4超快充成都总府路王府井站),春熙路街道总府路王府井百货地下停车场西区061(入口福兴街),成都市,锦江区,"104.079690,30.658358",3.3,,24小时营业,周一至周日 00:00-24:00,hex_229,小鹏,104.07969,30.658358
B0LAN6LDAF,小鹏超级充电站(小鹏S4超快充成都万科天荟二期站),天荟·万科广场地下停车场B1层,成都市,成华区,"104.124626,30.667833",3.3,,24小时营业,周一至周日 00:00-24:00,hex_229,小鹏,104.124626,30.667833
B0LG9DWESZ,理想超级充电站(理想超充站成都经天东路上东花园),锦华路街道经天东路158-附23号上东花园,成都市,锦江区,"104.108680,30.602266",3.8,,24小时营业,周一至周日 00:00-24:00,hex_229,理想,104.10868,30.602266
B0L2ZS3WMS,蔚来超充站(成都雷鳗汇泉东路地下站),双桂路街道汇泉东路86号四川省成都市七中育才学校地下停车场039,成都市,锦江区,"104.108865,30.632489",4.7,,24小时营业,周一至周日 00:00-24:00,hex_229,蔚来,104.108865,30.632489
B0LBD6HOQP,小鹏超级充电站(天荟万科充电站小鹏),天荟·万科广场地下停车场B1层,成都市,成华区,"104.124600,30.667826",3.3,,24小时营业,周一至周日 00:00-24:00,hex_229,小鹏,104.1246,30.667826
B0LRT9AT1F,理想超级充电站(理想超充站成都成华区建设北路),跳蹬河街道建设北路三段380号泰业·时光荟,成都市,成华区,"104.114430,30.676886",3.8,,24小时营业,周一至周日 00:00-24:00,hex_229,理想,104.11443,30.676886
B0LAB60WS3,小鹏超级充电站(小鹏S4超快充成都柳江新居站),锦华路二段378号对面停车位(入口锦华路二段),成都市,锦江区,"104.097870,30.604057",3.0,,24小时营业,周一至周日 00:00-24:00,hex_229,小鹏,104.09787,30.604057
B0KK3DTUX7,理想超级充电站(理想超充站成都锦江塔子山公园),塔子山公园内(北侧),成都市,锦江区,"104.123930,30.636307",3.8,,24小时营业,周一至周日 00:00-24:00,hex_229,理想,104.12393,30.636307
B0LRP6QOVC,小鹏目的地充电站(小鹏目充成都城市音乐厅站),望江路街道城市音乐厅(入口民主路),成都市,武侯区,"104.080130,30.636103",2.3,,24小时营业,周一至周日 00:00-24:00,hex_229,小鹏,104.08013,30.636103
B0K0ZLZ79J,蔚来换电站(成都麻石桥),建设南路8-附1号,成都市,成华区,"104.115188,30.667589",3.8,,[],[],hex_229,蔚来,104.115188,30.667589
B0JK5ZF0JN,蔚来换电站(成都万年场紫东芯座站),双福三路195号,成都市,成华区,"104.121173,30.648302",4.1,,[],[],hex_229,蔚来,104.121173,30.648302
B0KRRUWOJH,蔚来能源汽车充电站(成都万象城C馆),二环路东三段双庆路6号万象城C馆地下停车场LG2区4052,成都市,成华区,"104.115344,30.647080",2.3,,24小时营业,周一至周日 00:00-24:00,hex_229,蔚来,104.115344,30.64708
B0IAFZ6STR,小鹏超级充电站(开放运营-小鹏S4超快充成都COSMO天廊站),COSMO天廊停车场,成都市,锦江区,"104.120834,30.629011",3.3,,24小时营业,周一至周日 00:00-24:00,hex_229,小鹏,104.120834,30.629011
B0LRAC0D7A,理想超级充电站(理想超充站成都成华区跳蹬河北路),跳蹬河北路170号,成都市,成华区,"104.121590,30.659683",3.8,,24小时营业,周一至周日 00:00-24:00,hex_229,理想,104.12159,30.659683
B0LDZDTT5P,理想超级充电站(理想超充站成都成华区杉板桥南三路),衫板桥跳蹬河北路183号杉板桥地面停车场,成都市,成华区,"104.120570,30.662539",3.8,,24小时营业,周一至周日 00:00-24:00,hex_229,理想,104.12057,30.662539
B0IRFY9FVM,蔚来能源目的地充电站(成都万象城C馆),二环路东三段双庆路6号万象城C馆地下停车场LG2区4052,成都市,成华区,"104.116160,30.646906",2.3,,24小时营业,周一至周日 00:00-24:00,hex_229,蔚来,104.11616,30.646906
B0JU9UAEKF,蔚来能源超级充电站(成都龙泉梵木创艺区),东洪路688号1栋地面停车场(成渝立交地铁站B口步行410米),成都市,成华区,"104.149895,30.622688",3.3,,24小时营业,周一至周日 00:00-24:00,hex_229,蔚来,104.149895,30.622688
B0LUJCA2HW,理想超级充电站(理想超充站成都成华希尔顿欢朋酒店),杉板桥1路希尔顿欢朋酒店,成都市,成华区,"104.114620,30.663930",3.3,,24小时营业,周一至周日 00:00-24:00,hex_229,理想,104.11462,30.66393
B0M6V9KI2T,小鹏汽车充电站(小鹏超充成都城市音乐厅站),望江路街道城市音乐厅地下停车场2016(入口民主路),成都市,武侯区,"104.080086,30.636074",3.8,,24小时营业,周一至周日 00:00-24:00,hex_229,小鹏,104.080086,30.636074
B0LAUC331N,理想超级充电站(理想超充站成都岷山饭店),春熙路街道盐道街岷山饭店,成都市,锦江区,"104.066720,30.649017",3.8,,24小时营业,周一至周日 00:00-24:00,hex_228,理想,104.06672,30.649017
B0L196GI8Y,小鹏超级充电站(小鹏-bp S4超快充成都青羊文化宫站),华街道中环路青羊大道168号,成都市,青羊区,"104.009470,30.669930",3.3,,24小时营业,周一至周日 00:00-24:00,hex_228,小鹏,104.00947,30.66993
B0KKJ7KYTU,蔚来换电站(青少年宫小南街),小南街34号,成都市,青羊区,"104.054720,30.655965",0.0,,[],[],hex_228,蔚来,104.05472,30.655965
B0L2U9FQB6,理想超级充电站(理想超充站成都川旅大厦),火车南站街道新加坡花园川旅大厦,成都市,武侯区,"104.060295,30.609160",3.8,,24小时营业,周一至周日 00:00-24:00,hex_228,理想,104.060295,30.60916
B0IUDLL7WV,小鹏超级充电站(小鹏S4超快充成都红牌楼广场站),红牌楼广场地下停车场(红牌楼地铁站D口步行150米),成都市,武侯区,"104.029030,30.633465",3.3,,24小时营业,周一至周日 00:00-24:00,hex_228,小鹏,104.02903,30.633465
B0IUDLGP7S,小鹏汽车充电站(小鹏超充成都百扬大厦站),百扬大厦地下停车场,成都市,锦江区,"104.067441,30.656008",3.8,,24小时营业,周一至周日 00:00-24:00,hex_228,小鹏,104.067441,30.656008
B0KK2UCG3T,理想超级充电站(理想超充站成都高新神仙树全季酒店),芳草街街道紫丁巷8号成都高新技术产业开发区,成都市,武侯区,"104.044810,30.618776",3.8,,24小时营业,周一至周日 00:00-24:00,hex_228,理想,104.04481,30.618776
B0LUO9KIVX,理想超级充电站(理想超充站成都摩尔国际),簇锦街道诗锦路摩尔国际(簇锦地铁站C口步行490米),成都市,武侯区,"104.004950,30.613750",3.8,,24小时营业,周一至周日 00:00-24:00,hex_228,理想,104.00495,30.61375
B0LD5D6OLD,理想充电站(理想超充站成都渝江皇冠假日酒店),渝江皇冠假日酒店地面停车场,成都市,武侯区,"103.981927,30.644902",3.8,,24小时营业,周一至周日 00:00-24:00,hex_228,理想,103.981927,30.644902
B0L0HMQ1LA,理想超级充电站(理想超充站成都商鼎国际),火车南站街道翠云庭商鼎国际,成都市,武侯区,"104.068756,30.618547",3.8,,24小时营业,周一至周日 00:00-24:00,hex_228,理想,104.068756,30.618547
B0JBOUKHCU,小鹏超级充电站(小鹏S4超快充尚品奥莱广场充电站),尚品奥莱广场武侯店地下停车场,成都市,武侯区,"103.998830,30.622126",3.5,,24小时营业,周一至周日 00:00-24:00,hex_228,小鹏,103.99883,30.622126
B0KKJUMVTC,蔚来换电站(武侯区高升桥),七道堰街与广福桥正街交叉口东180米,成都市,武侯区,"104.039243,30.642264",4.0,,[],[],hex_228,蔚来,104.039243,30.642264
B0L12OV98V,理想汽车充电站(理想超充站成都武侯生态体育公园),机投桥街道万丰路武侯生态体育公园(西南角),成都市,武侯区,"103.990340,30.656092",3.8,,24小时营业,周一至周日 00:00-24:00,hex_228,理想,103.99034,30.656092
B0LRJDH0N8,理想超级充电站(理想超充站成都新阵地高尔夫中心),芳草街街道成都新阵地高尔夫俱乐部,成都市,武侯区,"104.048515,30.608345",3.8,,24小时营业,周一至周日 00:00-24:00,hex_228,理想,104.048515,30.608345
B0I2USU9PW,蔚来能源目的地充电站(邛崃天府红谷耕读桃源),高何镇天府红谷·耕读桃源,成都市,邛崃市,"103.107272,30.297077",1.9,,09:00-19:00,周一至周日 09:00-19:00,hex_98,蔚来,103.107272,30.297077
B0KR7RHZT1,蔚来能源目的地充电站(成都邛崃我们的院子),我们的院子精品民宿东侧250米,成都市,邛崃市,"103.319370,30.414213",1.9,,09:00-19:00,周一至周日 09:00-19:00,hex_149,蔚来,103.31937,30.414213
B0KR7RMMA1,蔚来能源汽车充电站(成都中铁花水湾温泉酒店),花水湾镇(西岭雪山脚下),成都市,大邑县,"103.255420,30.553330",2.0,,24小时营业,周一至周日 00:00-24:00,hex_196,蔚来,103.25542,30.55333
B0KR7RJG5P,蔚来能源目的地充电站(大邑花水湾温泉第一村酒店),花水湾温泉小镇138号,成都市,大邑县,"103.260060,30.563840",1.9,,09:00-19:00,周一至周日 09:00-19:00,hex_196,蔚来,103.26006,30.56384
B0LAKUJ4CA,蔚来能源目的地充电站(大邑花水湾凤栖林温泉酒店),花水湾风景区成都大邑花水湾镇金三角温泉北街2号,成都市,大邑县,"103.258835,30.567131",1.9,,09:00-19:00,周一至周日 09:00-19:00,hex_196,蔚来,103.258835,30.567131
B0KRRUWOJF,蔚来能源目的地充电站(成都中铁花水湾温泉酒店),花水湾镇(西岭雪山脚下),成都市,大邑县,"103.255440,30.553358",1.9,,09:00-19:00,周一至周日 09:00-19:00,hex_196,蔚来,103.25544,30.553358
B0LAVU2CQL,蔚来能源目的地充电站(大邑安仁福朋喜来登酒店),安仁镇迎宾路198号,成都市,大邑县,"103.616750,30.506182",1.9,,09:00-19:00,周一至周日 09:00-19:00,hex_175,蔚来,103.61675,30.506182
B0JKASLNWO,蔚来能源超级充电站(成都大邑雪山大道一段),成都贝根管道科技有限公司(大邑商会大厦东),成都市,大邑县,"103.539290,30.566177",3.3,,24小时营业,周一至周日 00:00-24:00,hex_199,蔚来,103.53929,30.566177
B0L15C14W2,汽车充电站(成都大邑雪山大道一段蔚来站),邑新大道873号,成都市,大邑县,"103.539352,30.566247",[],,[],[],hex_199,蔚来,103.539352,30.566247
B0IAFZ7NRC,小鹏目的地充电站(小鹏目充成都大邑1979雾山厂盒酒店站),鹤鸣镇1979雾山厂盒度假酒店(入口Y021乡道),成都市,大邑县,"103.388275,30.685875",2.3,,24小时营业,周一至周日 00:00-24:00,hex_245,小鹏,103.388275,30.685875
B0LAVU7DPM,蔚来能源目的地充电站(青城山如释青尘民宿),街子镇莲经村二组,成都市,崇州市,"103.517600,30.837864",1.9,,09:00-19:00,周一至周日 09:00-19:00,hex_295,蔚来,103.5176,30.837864
B0IAFZ9FPL,小鹏目的地充电站(小鹏目充成都青城山青暇山居野奢度假酒店站),艳景社区十组20号(入口沙街路),成都市,都江堰市,"103.549706,30.853828",1.0,,24小时营业,周一至周日 00:00-24:00,hex_295,小鹏,103.549706,30.853828
B0JK7UPZ1K,蔚来能源超级充电站(简阳e家天下),e家天下,成都市,简阳市,"104.506093,30.430226",3.3,,24小时营业,周一至周日 00:00-24:00,hex_162,蔚来,104.506093,30.430226
B0JG6LNUPI,小鹏汽车充电站(小鹏超充成都万千购物中心站),栖贤街道希望·未来城地下停车场B区0401(文达路入口),成都市,金堂县,"104.459440,30.851454",3.8,,24小时营业,周一至周日 00:00-24:00,hex_305,小鹏,104.45944,30.851454
B0J0PU8LS3,蔚来能源超级充电站(成都金堂迎宾大道一段),金泉路168号地面停车场01,成都市,金堂县,"104.409059,30.849697",2.6,,24小时营业,周一至周日 00:00-24:00,hex_305,蔚来,104.409059,30.849697
B0KROATSQ0,理想汽车充电站(理想超充站成都新津普兴东街),普兴东街20号附4号,成都市,新津区,"103.898950,30.405422",3.8,,24小时营业,周一至周日 00:00-24:00,hex_155,理想,103.89895,30.405422
B0KDL9U13F,蔚来能源超级充电站(成都新津花桥),长绍街亚汇石油(万里加油站)东北侧约150米,成都市,新津区,"103.849785,30.433733",3.3,,24小时营业,周一至周日 00:00-24:00,hex_155,蔚来,103.849785,30.433733
B0KK0C91YV,理想超级充电站(理想超充站成都双流迎春桥),迎春桥社区地面停车场,成都市,双流区,"103.935036,30.587704",3.8,,24小时营业,周一至周日 00:00-24:00,hex_203,理想,103.935036,30.587704
B0L2VD8KZQ,理想超级充电站(理想超充站成都兰桂苑),东升街道雨竹居兰桂苑,成都市,双流区,"103.934330,30.568870",3.8,,24小时营业,周一至周日 00:00-24:00,hex_203,理想,103.93433,30.56887
B0JA9HCZR1,小鹏超级充电站(小鹏S4超快充成都BBMALL站),东升街道仁和公寓城西市场(西安路一段),成都市,双流区,"103.916150,30.575272",3.3,,24小时营业,周一至周日 00:00-24:00,hex_203,小鹏,103.91615,30.575272
B0LGTCZ99W,理想超级充电站(理想超充站成都优品道广场城南店),优品道广场城南店西南停车场,成都市,双流区,"103.912440,30.594568",3.8,,24小时营业,周一至周日 00:00-24:00,hex_203,理想,103.91244,30.594568
B0J0YLRHLA,蔚来目充站成都芯谷A12地块,银河路五段180号地下停车场负一层A区292,成都市,双流区,"103.889605,30.567169",3.1,,24小时营业,周一至周日 00:00-24:00,hex_203,蔚来,103.889605,30.567169
B0J0MKVINJ,蔚来能源目的地充电站(成都芯谷A11地块),甘家碾,成都市,双流区,"103.889010,30.567010",3.1,,24小时营业,周一至周日 00:00-24:00,hex_203,蔚来,103.88901,30.56701
B0IRM5N86S,蔚来能源目的地充电站(成都芯谷A6地块),双流区芯谷产业园国芯五街6号地块1号楼,成都市,双流区,"103.890656,30.562334",3.8,,24小时营业,周一至周日 00:00-24:00,hex_203,蔚来,103.890656,30.562334
B0JG6LKRIM,小鹏汽车充电站(成都城南优品道小鹏超充站),东升街道城南优品道地下停车场B1区0016(入口航港路),成都市,双流区,"103.912056,30.597430",3.5,,[],[],hex_203,小鹏,103.912056,30.59743
B0J6DLGI5A,小鹏超级充电站(小鹏S4超快充成都洲际健康城站),洲际健康城22栋地下室(入口科兴路西段),成都市,温江区,"103.810940,30.661606",3.8,,24小时营业,周一至周日 00:00-24:00,hex_226,小鹏,103.81094,30.661606
B0JU6GUSDB,理想超级充电站(理想超充站成都武侯潮音社区),机投桥街道武新花园,成都市,武侯区,"103.978020,30.635868",3.8,,24小时营业,周一至周日 00:00-24:00,hex_227,理想,103.97802,30.635868
B0I6OS7I0H,蔚来换电站成都机九路,地面停车场,成都市,武侯区,"103.973044,30.652265",0.0,,24小时营业,周一至周日 00:00-24:00,hex_227,蔚来,103.973044,30.652265
B0IU6R1SEL,蔚来能源汽车超级充电站(成都机九路),地面停车场,成都市,武侯区,"103.973325,30.652625",2.6,,24小时营业,周一至周日 00:00-24:00,hex_227,蔚来,103.973325,30.652625
B0JBMHY7CD,小鹏汽车充电站(小鹏超充成都双流万达站),万达广场停车场,成都市,双流区,"103.925425,30.595638",3.8,,24小时营业,周一至周日 00:00-24:00,hex_227,小鹏,103.925425,30.595638
B0LGTGWGG7,理想超级充电站(理想超充站成都双流迎龙新居),东升街道西岭路,成都市,双流区,"103.940180,30.606749",3.3,,24小时营业,周一至周日 00:00-24:00,hex_227,理想,103.94018,30.606749
B0LR76I8C0,小鹏超级充电站(小鹏S4超快充成都蜀龙立交站),二仙桥北路与东三环路一段辅路交叉口西南180米城市仁德足球公园停车场,成都市,成华区,"104.145780,30.707188",3.3,,24小时营业,周一至周日 00:00-24:00,hex_254,小鹏,104.14578,30.707188
B0LG399OB6,理想超级充电站(理想超充站成都十陵客运站),十陵街道兴盛路,成都市,龙泉驿区,"104.165470,30.664421",0.0,,24小时营业,周一至周日 00:00-24:00,hex_254,理想,104.16547,30.664421
B0KGNAZB1S,泰博理想城二期停车场汽车充电站,仙韵一路4号负一楼407车位,成都市,成华区,"104.125370,30.685317",[],,24小时营业,周一至周日 00:00-24:00,hex_254,理想,104.12537,30.685317
B0LDZDU8M6,理想超级充电站(理想超充站成都新华宾馆),新华宾馆停车场(文殊院地铁站B口步行420米),成都市,青羊区,"104.065025,30.674627",3.8,,24小时营业,周一至周日 00:00-24:00,hex_253,理想,104.065025,30.674627
B0IUDLJSKO,小鹏汽车充电站(小鹏超充成都金牛万达站),荷花池街道肖二南巷46号金牛万达,成都市,金牛区,"104.074980,30.687782",3.5,,24小时营业,周一至周日 00:00-24:00,hex_253,小鹏,104.07498,30.687782
B0LGF9RUGW,理想超级充电站(理想超充站成都金科中心),双水碾街道金科中心9栋成都金科中心,成都市,成华区,"104.104230,30.717691",3.3,,24小时营业,周一至周日 00:00-24:00,hex_253,理想,104.10423,30.717691
B0L69DM3MY,理想超级充电站(理想超充站成都青羊东马道),草市街街道太升北路161号,成都市,青羊区,"104.078370,30.673792",3.3,,24小时营业,周一至周日 00:00-24:00,hex_253,理想,104.07837,30.673792
B0LR6MFJZ1,理想超级充电站(理想超充站成都维也纳李家沱地铁站店),维也纳酒店成都李家沱店东南门旁,成都市,成华区,"104.096140,30.691378",3.8,,24小时营业,周一至周日 00:00-24:00,hex_253,理想,104.09614,30.691378
B0L6CDJI6I,理想超级充电站(理想超充站成都成华蓝水湾),府青路街道中房·蓝水湾(二环路北四段),成都市,成华区,"104.097390,30.687662",4.5,,24小时营业,周一至周日 00:00-24:00,hex_253,理想,104.09739,30.687662
B0LD56HAUQ,小鹏超级充电站(小鹏S4超快充成都财富又一城站),府青路二段2号财富又一城(入口华安路),成都市,成华区,"104.094252,30.678325",3.8,,24小时营业,周一至周日 00:00-24:00,hex_253,小鹏,104.094252,30.678325
B0LGHDNZF8,理想超级充电站(理想超充站成都金牛区花照壁西顺街),营门口街道花照壁西顺街格林幼儿园,成都市,金牛区,"104.034065,30.699902",3.8,,24小时营业,周一至周日 00:00-24:00,hex_253,理想,104.034065,30.699902
B0KK4PYR4K,理想汽车充电站(理想超充站成都成华宝泰家园),宝泰家园停车场,成都市,成华区,"104.115295,30.685310",3.8,,24小时营业,周一至周日 00:00-24:00,hex_253,理想,104.115295,30.68531
B0JGNCTRQM,小鹏超级充电站(小鹏S4超快充成都印象城站),建设北路二段157号印象城(入口建设北路二段),成都市,成华区,"104.105740,30.674206",3.8,,24小时营业,周一至周日 00:00-24:00,hex_253,小鹏,104.10574,30.674206
B0KABP55VA,蔚来能源超级充电站 成都凤凰山公园,地面停车场,成都市,金牛区,"104.076931,30.736263",2.6,,24小时营业,周一至周日 00:00-24:00,hex_253,蔚来,104.076931,30.736263
B0IG9ZBEEL,蔚来换电站(成都华侨城山姆店),北三环路一段223号山姆会员商店(华侨城店),成都市,金牛区,"104.030246,30.713554",0.0,,[],[],hex_253,蔚来,104.030246,30.713554
B0LR66G5AX,小鹏汽车充电站(小鹏超充成都华侨城山姆站),西华街道北三环路一段223号Sam's CLUB,成都市,金牛区,"104.030970,30.714397",3.3,,24小时营业,周一至周日 00:00-24:00,hex_253,小鹏,104.03097,30.714397
B0LATC7I62,汽车换电站(蔚来金牛区解放西路站),解放西路17号,成都市,金牛区,"104.081657,30.690087",[],,24小时营业,周一至周日 00:00-24:00,hex_253,蔚来,104.081657,30.690087
B0JB1UB31L,蔚来能源目的地充电站(成都瑞吉酒店),恒大广场地下停车场(太升南路地铁站B口步行480米),成都市,青羊区,"104.074510,30.661009",3.1,,24小时营业,周一至周日 00:00-24:00,hex_253,蔚来,104.07451,30.661009
B0IRZ50N4S,汽车充电站(延长壳牌金牛理想交付中心充电站),大成仓智汇园B区地面停车场,成都市,金牛区,"104.009869,30.716728",4.9,,24小时营业,周一至周日 00:00-24:00,hex_252,理想,104.009869,30.716728
B0L1H6VT4A,小鹏超级充电站(小鹏S4超快充成都交投青羊加油站站),青羊加油站(青羊站)地面停车场,成都市,青羊区,"103.936935,30.689419",3.5,,24小时营业,周一至周日 00:00-24:00,hex_252,小鹏,103.936935,30.689419
B0K1XS73XF,蔚来换电站(蔚来成都金牛金桥苑站),信息园西路与盛业路交叉口东南160米,成都市,金牛区,"104.008349,30.718959",[],,24小时营业,周一至周日 00:00-24:00,hex_252,蔚来,104.008349,30.718959
B0J2THY05F,蔚来换电站(成都金沙金博路),金博路20号,成都市,金牛区,"104.013670,30.685112",[],,24小时营业,周一至周日 00:00-24:00,hex_252,蔚来,104.01367,30.685112
B0K0Z7ZDOD,蔚来成都中石化华夏站汽车充电站,金府路与金牛坝路2号中国石化华夏加油站停车场(内部专用),成都市,金牛区,"104.022678,30.705002",3.3,,24小时营业,周一至周日 00:00-24:00,hex_252,蔚来,104.022678,30.705002
B0LD097G0G,理想超级充电站(理想超充站成都国锐科创中心),西华街道成都公交集团保修公司五保修场,成都市,金牛区,"104.009150,30.720404",3.8,,24小时营业,周一至周日 00:00-24:00,hex_252,理想,104.00915,30.720404
B0J07KASUC,蔚来能源超级充电站(成都西站),黄田坝街道西客站市级储备土地(西货站路),成都市,青羊区,"103.977563,30.688861",3.3,,24小时营业,周一至周日 00:00-24:00,hex_252,蔚来,103.977563,30.688861
B0L26MDP27,理想超级充电站(理想超充站成都青羊总部基地),苏坡街道成飞大道青羊工业总部基地C区,成都市,青羊区,"103.961920,30.681973",3.8,,24小时营业,周一至周日 00:00-24:00,hex_252,理想,103.96192,30.681973
B0L6RL4DKB,理想超级充电站(理想超充站成都金沙海棠东北侧停车场),苏坡街道蜀鑫路60号,成都市,青羊区,"103.992250,30.685053",3.8,,24小时营业,周一至周日 00:00-24:00,hex_252,理想,103.99225,30.685053
B0KDJ660D8,小鹏超级充电站(能创蜀鑫路充电站小鹏平台),蜀鑫路与金辉路交叉口,成都市,青羊区,"103.990330,30.681500",3.3,,24小时营业,周一至周日 00:00-24:00,hex_252,小鹏,103.99033,30.6815
B0KKP67YXV,小鹏超级充电站(小鹏S4超快充成都郫县和心路站),和心路101号成外附小幼稚园(万科园),成都市,郫都区,"103.979940,30.736856",3.3,,24小时营业,周一至周日 00:00-24:00,hex_252,小鹏,103.97994,30.736856
B0L6CXT6Z8,理想汽车充电站(理想超充站成都青羊百仁社区),苏坡街道百仁社区居委会锦澜观棠,成都市,青羊区,"103.997550,30.697645",3.8,,24小时营业,周一至周日 00:00-24:00,hex_252,理想,103.99755,30.697645
B0KR1UOYJ0,理想汽车充电站(理想超充站成都郫都西南国际医疗器械城),合作街道西芯大道12号西南国际医疗器械城,成都市,郫都区,"103.966890,30.738651",3.8,,24小时营业,周一至周日 00:00-24:00,hex_252,理想,103.96689,30.738651
B0LDV6YRPA,小鹏超级充电站(小鹏S4超快充成都金牛兴普中心站负一层),振兴路99号兴普中心(入口振兴路),成都市,金牛区,"104.009690,30.713926",3.8,,24小时营业,周一至周日 00:00-24:00,hex_252,小鹏,104.00969,30.713926
B0KDX6MTGO,小鹏超级充电站(能创百仁社区充电站小鹏平台),百瑞二路336号附1号,成都市,青羊区,"103.997475,30.697668",3.4,,24小时营业,周一至周日 00:00-24:00,hex_252,小鹏,103.997475,30.697668
B0L0L67NU6,小鹏超级充电站(小鹏S4超快充成都青羊文光路站),文光路188号,成都市,青羊区,"103.958840,30.689592",3.8,,24小时营业,周一至周日 00:00-24:00,hex_252,小鹏,103.95884,30.689592
B0LRN6KLEM,小鹏超级充电站(小鹏S4超快充成都西站服务站),黄田坝街道西站一楼蔚维充电成都西站服务站,成都市,青羊区,"103.977875,30.688822",3.0,,24小时营业,周一至周日 00:00-24:00,hex_252,小鹏,103.977875,30.688822
B0KKVL2TDK,理想超级充电站(理想超充站成都青羊成都西站),蔚景云汽车充电站,成都市,青羊区,"103.977840,30.688917",3.5,,24小时营业,周一至周日 00:00-24:00,hex_252,理想,103.97784,30.688917
B0I05PXCSO,小鹏汽车充电站(小鹏超充成都青羊万达站),苏坡街道日月大道一段989号青羊万达广场B1F区,成都市,青羊区,"103.972966,30.676823",3.8,,24小时营业,周一至周日 00:00-24:00,hex_252,小鹏,103.972966,30.676823
B0L0D6LOXF,小鹏超级充电站(小鹏S4超快充成都西南国际医疗器械城站),郫都区高新西区西芯大道12号(入口西芯大道辅路),成都市,郫都区,"103.966866,30.738733",3.3,,24小时营业,周一至周日 00:00-24:00,hex_252,小鹏,103.966866,30.738733
B0LUV9F8NM,理想超级充电站(理想超充站理想汽车成都羊西零售中心),蜀西路165号,成都市,金牛区,"103.986496,30.716188",3.2,,06:00-22:00,周一至周日 06:00-22:00,hex_252,理想,103.986496,30.716188
B0J05HWBCE,汽车换电站(蔚来换电站成都西站),武青北路551号,成都市,青羊区,"103.977995,30.688997",[],,24小时营业,周一至周日 00:00-24:00,hex_252,蔚来,103.977995,30.688997
B0L61USAJ9,蔚来能源目的地充电站(内部使用成都应急管理部四川消防研究所),金科南路69号南院,成都市,金牛区,"103.996900,30.716858",0.0,,24小时营业,周一至周日 00:00-24:00,hex_252,蔚来,103.9969,30.716858
B0IRFH91TC,汽车充电站(蔚来超充站成都新都香城乐动力),绕城大道东一段地面停车场,成都市,新都区,"104.197127,30.808250",4.5,,24小时营业,周一至周日 00:00-24:00,hex_278,蔚来,104.197127,30.80825
B0LRT9AZ0W,理想超级充电站(理想超充站成都新都兴业大道一段),新都街道兴业大道一段潮玩公园,成都市,新都区,"104.203020,30.811144",3.3,,24小时营业,周一至周日 00:00-24:00,hex_278,理想,104.20302,30.811144
B0LR1DTSS3,理想超级充电站(理想超充站成都新都富森美家居),桂湖街道物流大道富森·美家居汽配MALL,成都市,新都区,"104.141945,30.793629",3.8,,24小时营业,周一至周日 00:00-24:00,hex_277,理想,104.141945,30.793629
B0J03RD2SX,蔚来换电站(成都五龙山路),五龙大道94号,成都市,新都区,"104.161933,30.778439",[],,[],[],hex_277,蔚来,104.161933,30.778439
B0I05PWR21,小鹏汽车充电站(成都汇融广场S4小鹏超快充站),大丰街道彦家湾路方元路45号汇融商场地下停车场地下二层D2区1456,成都市,新都区,"104.062580,30.764732",3.5,,24小时营业,周一至周日 00:00-24:00,hex_276,小鹏,104.06258,30.764732
B0L6O42SMN,举视汽车充电站(万科理想城14栋负二楼共享充电站),万科·理想城四期内部地下停车场,成都市,郫都区,"103.981448,30.753122",0.0,,24小时营业,周一至周日 00:00-24:00,hex_276,理想,103.981448,30.753122
B0JR96E62I,小鹏充电站(新城市购物广场店),马超东路266号地下停车场191,成都市,新都区,"104.179878,30.810142",3.8,,24小时营业,周一至周日 00:00-24:00,hex_302,小鹏,104.179878,30.810142
B0LUJMA008,理想超级充电站(理想超充站成都炬光国际潮流文化会展中心),桂湖街道自强路156号(锦水河地铁站G口步行470米),成都市,新都区,"104.153420,30.801062",3.8,,24小时营业,周一至周日 00:00-24:00,hex_302,理想,104.15342,30.801062
B0L1ODO9TZ,理想超级充电站(理想超充站成都新都区文家一巷),天元小学(东环路校区),成都市,新都区,"104.169860,30.827220",3.8,,24小时营业,周一至周日 00:00-24:00,hex_302,理想,104.16986,30.82722
B0JBTC1WDU,蔚来能源目的地充电站(内部使用中国人寿成都保险研修院),兴乐北路1699号,成都市,新都区,"104.197720,30.828867",0.0,,24小时营业,周一至周日 00:00-24:00,hex_302,蔚来,104.19772,30.828867
B0KR7RO2RC,蔚来能源目的地充电站(内部使用成都新港海绵有限公司),新繁镇家具工业园区阳光林森路229号,成都市,新都区,"104.004560,30.853054",0.0,,24小时营业,周一至周日 00:00-24:00,hex_300,蔚来,104.00456,30.853054
B0LGTGSJWY,理想超级充电站(理想超充站成都温江凤溪大道),柳城街道凤溪大道南段(凤溪河地铁站B口步行140米),成都市,温江区,"103.844930,30.686287",3.8,,24小时营业,周一至周日 00:00-24:00,hex_250,理想,103.84493,30.686287
B0K136RARE,小鹏超级充电站(能创金府中段充电站小鹏平台),金府路中段48号(入口金府路),成都市,温江区,"103.800270,30.687733",3.3,,24小时营业,周一至周日 00:00-24:00,hex_250,小鹏,103.80027,30.687733
B0KKUCJQPB,理想超级充电站(理想超充站成都温江金府路),天府街道金府路中段48号,成都市,温江区,"103.799930,30.688240",3.3,,24小时营业,周一至周日 00:00-24:00,hex_250,理想,103.79993,30.68824
B0LR16RH0O,小鹏超级充电站(小鹏-bp S4超快充成都温江孔雀城站),国家海峡两岸科技产业开发园温江区南江路789号温江孔雀城,成都市,温江区,"103.843890,30.681725",3.3,,24小时营业,周一至周日 00:00-24:00,hex_250,小鹏,103.84389,30.681725
B0L309M4PL,理想超级充电站(理想超充站成都金强运动中心),万春镇江宁南路国色天乡鹭湖宫6区,成都市,温江区,"103.835110,30.719982",3.8,,24小时营业,周一至周日 00:00-24:00,hex_250,理想,103.83511,30.719982
B0L0L68AOF,小鹏超级充电站(小鹏S4超快充成都温江国色天乡站),永安路与天乡路二段交叉口北160米,成都市,温江区,"103.821580,30.717310",3.5,,24小时营业,周一至周日 00:00-24:00,hex_250,小鹏,103.82158,30.71731
B0K3C7FW8M,蔚来能源充电站(池州九华山蔚蓝之行),成都新盈宝汽车销售服务有限公司芙蓉大道一段店南门旁,成都市,温江区,"103.869250,30.700664",5.0,,24小时营业,周一至周日 00:00-24:00,hex_251,蔚来,103.86925,30.700664
B0J2LU0CJ8,蔚来换电站(成都温江永和街),永和街停车场入口进来左转走到底直行,成都市,温江区,"103.855623,30.680691",[],,24小时营业,周一至周日 00:00-24:00,hex_251,蔚来,103.855623,30.680691
B0HDZ6XMW6,蔚来换电站成都金温江首座,兆雅物业大厦地面停车场,成都市,温江区,"103.869283,30.701100",0.0,,24小时营业,周一至周日 00:00-24:00,hex_251,蔚来,103.869283,30.7011
B0L6647CYI,理想超级充电站(理想超充站成都温江德昆新天地),盒马鲜生停车场,成都市,温江区,"103.856730,30.689526",3.8,,24小时营业,周一至周日 00:00-24:00,hex_251,理想,103.85673,30.689526
B0L6PM9SMK,理想超级充电站(理想超充站成都温江标驰车检中心),成都标驰机动车检测有限公司地面停车场,成都市,温江区,"103.875060,30.695492",3.8,,24小时营业,周一至周日 00:00-24:00,hex_251,理想,103.87506,30.695492
B0L276ILCC,小鹏超级充电站(小鹏S4超快充成都德昆悦天地站),德昆悦天地B座12楼1211号(入口海川路),成都市,温江区,"103.853300,30.682693",3.3,,24小时营业,周一至周日 00:00-24:00,hex_251,小鹏,103.8533,30.682693
B0L6PMC40V,小鹏超级充电站(小鹏S4超快充成都温江标驰检测站站),成都标驰机动车检测有限公司地面停车场,成都市,温江区,"103.874596,30.695547",3.3,,24小时营业,周一至周日 00:00-24:00,hex_251,小鹏,103.874596,30.695547
B0HAJ641KX,蔚来能源汽车充电站(成都郫都菁蓉蔚来超充站),创客餐厅地面停车场,成都市,郫都区,"103.863377,30.779744",3.6,,24小时营业,周一至周日 00:00-24:00,hex_274,蔚来,103.863377,30.779744
B0L1M6FKBV,小鹏超级充电站(小鹏S4超快充成都郫县南北大道站),蜀新大道1398号名扬青少年运动中心羽毛球馆,成都市,郫都区,"103.911800,30.798363",3.3,,24小时营业,周一至周日 00:00-24:00,hex_275,小鹏,103.9118,30.798363
B0J6L9QXO2,蔚来能源汽车充电站(成都川蔚宸心站),犀团路165号,成都市,郫都区,"103.966840,30.765509",3.8,,24小时营业,周一至周日 00:00-24:00,hex_275,蔚来,103.96684,30.765509
B0LUACOVV3,理想超级充电站(理想超充站成都郫都百草路),合作街道百草路1025号,成都市,郫都区,"103.955230,30.749630",3.8,,24小时营业,周一至周日 00:00-24:00,hex_275,理想,103.95523,30.74963
B0K0S6086E,小鹏超级充电站(能创西区大道充电站小鹏平台),西区大道1599号附12号(入口西区大道),成都市,郫都区,"103.940506,30.766342",3.8,,24小时营业,周一至周日 00:00-24:00,hex_275,小鹏,103.940506,30.766342
B0LA666TEY,小鹏超级充电站(小鹏S4超快充成都犀浦车管所站),郫都区犀团路65号(入口犀团路),成都市,郫都区,"103.968538,30.762697",3.3,,24小时营业,周一至周日 00:00-24:00,hex_275,小鹏,103.968538,30.762697
B0I3B5E74A,蔚来锦鲤换电站,犀团路97号,成都市,郫都区,"103.966533,30.765322",3.6,,[],[],hex_275,蔚来,103.966533,30.765322
B0K02ST4SY,理想超级充电站(理想超充站成都郫都西区大道),郫都区小桔充电站(能创西区大道)内,成都市,郫都区,"103.940380,30.766205",3.8,,24小时营业,周一至周日 00:00-24:00,hex_275,理想,103.94038,30.766205
B0L6PA68DM,理想超级充电站(理想超充站成都郫都双柏路),德农正成种业有限公司,成都市,郫都区,"103.924230,30.790960",3.8,,24小时营业,周一至周日 00:00-24:00,hex_275,理想,103.92423,30.79096
B0I04PJK96,小鹏超级充电站(小鹏S4超快充成都高新西区服务中心站),新航路2号高新西区服务中心(入口新航路),成都市,郫都区,"103.963758,30.738923",3.2,,06:30-23:30,周一至周日 06:30-23:30,hex_275,小鹏,103.963758,30.738923
B0L0Y6504X,小鹏超级充电站(小鹏S4超快充成都郫都区百草路站),高新西区百草路993号(入口百草路),成都市,郫都区,"103.954890,30.749607",3.3,,24小时营业,周一至周日 00:00-24:00,hex_275,小鹏,103.95489,30.749607
B0L61U69GP,蔚来能源目的地充电站(内部使用成都威特电喷有限责任公司),郫都区高新西区西源大道84号b座3楼,成都市,郫都区,"103.944590,30.735168",0.0,,24小时营业,周一至周日 00:00-24:00,hex_275,蔚来,103.94459,30.735168
B0L61USPZM,蔚来能源目的地充电站(内部使用成都西门子智能制造中心),郫都区西芯大道7号,成都市,郫都区,"103.962080,30.739717",0.0,,24小时营业,周一至周日 00:00-24:00,hex_275,蔚来,103.96208,30.739717
B0LBS4NTJD,举视汽车充电站(万科理想城1期一栋负二楼共享充电站),犀浦街道兴业北街12号,成都市,郫都区,"103.978304,30.753966",1.0,,24小时营业,周一至周日 00:00-24:00,hex_275,理想,103.978304,30.753966
B0LAM40R30,举视汽车充电站(万科理想城14栋负二楼共享充电站),犀浦街道万科·理想城-芳华门西南约115米,成都市,郫都区,"103.979755,30.751946",1.0,,24小时营业,周一至周日 00:00-24:00,hex_275,理想,103.979755,30.751946
B0LD3DHUQK,理想超级充电站(理想超充站成都郫都鹃兴路),郫筒街道鹃兴路157号,成都市,郫都区,"103.895996,30.819017",3.8,,24小时营业,周一至周日 00:00-24:00,hex_299,理想,103.895996,30.819017
B0JG6LKRII,小鹏汽车充电站(小鹏超充成都蜀都万达广场站),郫筒街道蜀都万达广场地下停车场F区F-054,成都市,郫都区,"103.905040,30.807410",3.8,,24小时营业,周一至周日 00:00-24:00,hex_299,小鹏,103.90504,30.80741
B0L3MZKG7U,理想超级充电站(理想超充站彭州天彭街道爱国南路),天彭街道爱国南路四川制药股份有限公司,成都市,彭州市,"103.969390,30.981781",3.3,,24小时营业,周一至周日 00:00-24:00,hex_348,理想,103.96939,30.981781
B0J33KO1HZ,蔚来能源超级充电站(彭州爱国南路),天府东路389号地面停车场,成都市,彭州市,"103.970037,30.981737",2.6,,24小时营业,周一至周日 00:00-24:00,hex_348,蔚来,103.970037,30.981737
B0L054SS29,友电云物联汽车充电站(友电云理想之城2期充电站),理想之城2期,成都市,彭州市,"103.938576,30.926130",1.8,,24小时营业,周一至周日 00:00-24:00,hex_323,理想,103.938576,30.92613
B0K3UDWLFW,理想汽车充电站(理想超充站彭州郊野公园),消防救援大队旁,成都市,彭州市,"103.940100,30.999056",3.8,,24小时营业,周一至周日 00:00-24:00,hex_371,理想,103.9401,30.999056
B0KKL6382J,小鹏超级充电站(小鹏S4超快充成都彭州郊野公园站),天彭镇朝阳北路156号(入口朝阳北路),成都市,彭州市,"103.940030,30.998950",3.8,,24小时营业,周一至周日 00:00-24:00,hex_371,小鹏,103.94003,30.99895
B0LUP50A8H,小鹏目的地充电站(小鹏目充成都青城山豪生国际酒店站),成都青城豪生国际酒店停车场,成都市,都江堰市,"103.599594,30.893042",2.3,,24小时营业,周一至周日 00:00-24:00,hex_319,小鹏,103.599594,30.893042
B0IUDLJSJI,小鹏汽车充电站(小鹏超充成都青城山豪生国际酒店站),青城山镇豪生国际酒店(入口豪生路),成都市,都江堰市,"103.599478,30.893195",0.0,,24小时营业,周一至周日 00:00-24:00,hex_319,小鹏,103.599478,30.893195
B0IAFZ9FN1,小鹏汽车充电站(开放运营-青城山肆禧山外民宿小鹏目的地站),青城山镇肆禧·山外(入口青龙路),成都市,都江堰市,"103.553160,30.894896",2.3,,24小时营业,周一至周日 00:00-24:00,hex_319,小鹏,103.55316,30.894896
B0IRSSBVT3,蔚来能源目的地充电站(都江堰青城坐忘酒店),青城山镇坐忘森林酒店,成都市,都江堰市,"103.542540,30.908690",1.9,,09:00-19:00,周一至周日 09:00-19:00,hex_319,蔚来,103.54254,30.90869
B0I05PXRXH,小鹏目的地充电站(小鹏目充成都途悦霞客行房车度假营地站)(暂停营业),龙池镇望江村14组28号(入口望江路),成都市,都江堰市,"103.516335,30.994211",0.0,,24小时营业,周一至周日 00:00-24:00,hex_343,小鹏,103.516335,30.994211
B0K0G612N8,小鹏超级充电站(小鹏S4超快充成都都江堰玉带桥站),观景路一段与建兴路交叉口西120米,成都市,都江堰市,"103.631610,30.999113",3.3,,24小时营业,周一至周日 00:00-24:00,hex_344,小鹏,103.63161,30.999113
B0LB3C7O8O,理想超级充电站(理想超充站成都融创施柏阁酒店),玉堂街道青城山大道成都融创堇悦酒店,成都市,都江堰市,"103.617035,30.956116",3.2,,24小时营业,周一至周日 00:00-24:00,hex_344,理想,103.617035,30.956116
B0LDOU5Q85,理想超级充电站(理想超充站都江堰玉带桥),玉带桥新能源汽车充电站,成都市,都江堰市,"103.631670,30.999205",3.8,,24小时营业,周一至周日 00:00-24:00,hex_344,理想,103.63167,30.999205
B0L6XPS30O,蔚来能源超级充电站(都江堰玉带桥),兴盛街242号,成都市,都江堰市,"103.631690,30.999039",2.6,,24小时营业,周一至周日 00:00-24:00,hex_344,蔚来,103.63169,30.999039
B0KROSLL6J,蔚来能源目的地充电站(成都融创施柏阁酒店),融创施柏阁酒店停车场,成都市,都江堰市,"103.616844,30.957306",2.3,,09:00-19:00,周一至周日 09:00-19:00,hex_344,蔚来,103.616844,30.957306
B0H1ZZ76NH,蔚来换电站(都江堰彩虹大道站),通锦路310号,成都市,都江堰市,"103.644978,30.974366",0.0,,[],[],hex_344,蔚来,103.644978,30.974366
B0I2USQJ3K,蔚来能源目的地充电站(都江堰江南忆庄园酒店),虹口乡江南忆庄园酒店,成都市,都江堰市,"103.638622,31.102103",1.9,,09:00-19:00,周一至周日 09:00-19:00,hex_392,蔚来,103.638622,31.102103
B0J0TKRB7U,蔚来换电站(成都青白江凤凰西六路),同华大道北侧地面停车场03,成都市,青白江区,"104.262072,30.891512",0.0,,24小时营业,周一至周日 00:00-24:00,hex_327,蔚来,104.262072,30.891512
B0K0P6U29O,小鹏超级充电站(能创盛华产业园充电站小鹏平台),同济大道88号附5号盛华产业园,成都市,青白江区,"104.280650,30.869244",3.3,,24小时营业,周一至周日 00:00-24:00,hex_327,小鹏,104.28065,30.869244
B0J0H5VKLY,蔚来换电站(英祥·北城映像店),凤凰西六路,成都市,青白江区,"104.261925,30.891425",[],,[],[],hex_327,蔚来,104.261925,30.891425
